[{'language_list': ['Spanish', 'Portuguese', 'English'], 'hours': ['24 hours a day, 7 days a week'], 'geocode': {'lng': -77.1211338, 'lat': 38.8981779}, 'name': 'Arlington 1', 'accessibility': True, 'amount_left': 337830, '_id': '56c66be5a73e492741506f2b', 'address': {'street_number': '4700', 'street_name': 'Lee Highway', 'zip': '22207', 'city': 'Arlington', 'state': 'VA'}}, {'language_list': ['Chinese', 'French', 'Spanish', 'Hindustani', 'English'], 'hours': ['24 hours a day, 7 days a week'], 'geocode': {'lng': -77.1211338, 'lat': 38.8981779}, 'name': 'Arlington 2', 'accessibility': True, 'amount_left': 510406, '_id': '56c66be5a73e492741506f2c', 'address': {'street_number': '4700', 'street_name': 'Lee Highway', 'zip': '22207', 'city': 'Arlington', 'state': 'VA'}}, {'language_list': ['Chinese', 'French', 'Spanish', 'Hindustani', 'Portuguese', 'English'], 'hours': ['24 hours a day, 7 days a week'], 'geocode': {'lng': -77.1333157, 'lat': 38.8960952}, 'name': 'Lee Highway/North Arlington 2', 'accessibility': True, 'amount_left': 270091, '_id': '56c66be5a73e492741506f2d', 'address': {'street_number': '5222', 'street_name': 'Lee Highway', 'zip': '22207', 'city': 'Arlington', 'state': 'VA'}}, {'language_list': ['Hindustani', 'English'], 'hours': ['24 hours a day, 7 days a week'], 'geocode': {'lng': -77.1333157, 'lat': 38.8960952}, 'name': 'Lee Highway/North Arlington 3', 'accessibility': False, 'amount_left': 13697, '_id': '56c66be5a73e492741506f2e', 'address': {'street_number': '5222', 'street_name': 'Lee Highway', 'zip': '22207', 'city': 'Arlington', 'state': 'VA'}}, {'language_list': ['Portuguese', 'Korean', 'English'], 'hours': ['24 hours a day, 7 days a week'], 'geocode': {'lng': -77.1333157, 'lat': 38.8960952}, 'name': 'Lee Highway/North Arlington 4', 'accessibility': True, 'amount_left': 801970, '_id': '56c66be5a73e492741506f2f', 'address': {'street_number': '5222', 'street_name': 'Lee Highway', 'zip': '22207', 'city': 'Arlington', 'state': 'VA'}}, {'language_list': ['French', 'Korean', 'Portuguese', 'Hindustani', 'English'], 'hours': ['24 hours a day, 7 days a week'], 'geocode': {'lng': -77.1113105, 'lat': 38.882163}, 'name': 'WMATA - Ballston 1', 'accessibility': True, 'amount_left': 561583, '_id': '56c66be5a73e492741506f30', 'address': {'street_number': '4230', 'street_name': 'Fairfax Drive', 'zip': '22203', 'city': 'Arlington', 'state': 'VA'}}, {'language_list': ['English'], 'hours': ['24 hours a day, 7 days a week'], 'geocode': {'lng': -77.1102162, 'lat': 38.8788951}, 'name': 'Ballston Commons Mall 1', 'accessibility': True, 'amount_left': 13984, '_id': '56c66be5a73e492741506f31', 'address': {'street_number': '4238', 'street_name': 'Wilson Boulevard', 'zip': '22203', 'city': 'Arlington', 'state': 'VA'}}, {'language_list': ['French', 'English'], 'hours': ['24 hours a day, 7 days a week'], 'geocode': {'lng': -77.1102162, 'lat': 38.8788951}, 'name': 'Ballston Commons Mall 2', 'accessibility': False, 'amount_left': 818133, '_id': '56c66be5a73e492741506f32', 'address': {'street_number': '4238', 'street_name': 'Wilson Boulevard', 'zip': '22203', 'city': 'Arlington', 'state': 'VA'}}, {'language_list': ['English'], 'hours': ['24 hours a day, 7 days a week'], 'geocode': {'lng': -77.1102162, 'lat': 38.8788951}, 'name': 'Ballston Commons Mall 4', 'accessibility': False, 'amount_left': 318232, '_id': '56c66be5a73e492741506f33', 'address': {'street_number': '4238', 'street_name': 'Wilson Boulevard', 'zip': '22203', 'city': 'Arlington', 'state': 'VA'}}, {'language_list': ['English'], 'hours': ['24 hours a day, 7 days a week'], 'geocode': {'lng': -77.109526, 'lat': 38.879446}, 'name': 'Ballston Common Mall 1', 'accessibility': True, 'amount_left': 864330, '_id': '56c66be5a73e492741506f34', 'address': {'street_number': '4100', 'street_name': 'Wilson Boulevard', 'zip': '22203', 'city': 'Arlington', 'state': 'VA'}}]
